City_ID,City,Lat,Lng,Max Temp,Humidity,Cloudiness,Wind Speed,Country,Date
0,port-aux-francais,-49.35,70.2167,7.3,89,96,14.67,TF,1683237845
1,kas,36.2018,29.6377,19.2,65,99,5.35,TR,1683237845
2,aykhal,66.0,111.5,-5.19,97,98,2.12,RU,1683237845
3,puerto natales,-51.7236,-72.4875,6.43,88,35,2.6,CL,1683237846
4,fortuna,40.5982,-124.1573,12.03,87,100,0.89,US,1683237630
5,tralee,52.2704,-9.7026,10.52,99,100,3.12,IE,1683237846
6,ziro,27.6333,93.8333,9.31,98,97,0.75,IN,1683237846
7,puerto ayora,-0.7393,-90.3518,30.98,88,71,2.68,EC,1683237846
8,isafjordur,66.0755,-23.124,5.99,86,100,1.71,IS,1683237847
9,yerofey pavlovich,53.9667,121.9667,1.54,59,32,1.49,RU,1683237847
10,susuman,62.7833,148.1667,-3.39,82,92,0.95,RU,1683237847
11,port mathurin,-19.6833,63.4167,26.14,74,8,7.45,MU,1683237847
12,olonkinbyen,70.9221,-8.7187,0.76,87,100,9.21,SJ,1683237848
13,sisimiut,66.9395,-53.6735,0.79,88,39,4.3,GL,1683237848
14,edinburgh of the seven seas,-37.0676,-12.3116,14.89,76,81,7.69,SH,1683237848
15,qiqihar,47.3408,123.9672,10.46,36,86,4.21,CN,1683237848
16,adamstown,-25.066,-130.1015,22.77,78,100,11.48,PN,1683237849
17,weligama,5.9667,80.4167,25.22,86,100,6.86,LK,1683237849
18,aasiaat,68.7098,-52.8699,-1.33,83,24,5.3,GL,1683237849
19,ribeira grande,38.5167,-28.7,17.65,93,89,6.71,PT,1683237849
20,grytviken,-54.2811,-36.5092,3.41,94,84,3.07,GS,1683237849
21,bethel,41.3712,-73.414,14.05,56,20,3.6,US,1683237850
22,newman,37.3138,-121.0208,18.46,71,67,1.34,US,1683237850
23,raichur,16.2,77.3667,25.52,76,86,3.53,IN,1683237850
24,kingston,17.997,-76.7936,32.91,68,20,10.8,JM,1683237554
25,waitangi,-43.9535,-176.5597,17.12,90,98,3.58,NZ,1683237851
26,sungai penuh,-2.0833,101.3833,19.6,98,100,0.23,ID,1683237851
27,utrik,11.2278,169.8474,26.94,76,99,6.61,MH,1683237851
28,enewetak,11.3474,162.3373,27.16,75,88,7.36,MH,1683237851
29,talnakh,69.4865,88.3972,-13.77,95,81,0.78,RU,1683237851
30,lebu,-37.6167,-73.65,12.13,87,100,7.61,CL,1683237852
31,oral,51.2333,51.3667,7.99,61,0,4.0,KZ,1683237852
32,saipan,15.1355,145.701,28.39,100,40,5.14,MP,1683237852
33,longyearbyen,78.2186,15.6401,-3.09,93,75,2.06,SJ,1683237673
34,ushuaia,-54.8,-68.3,6.81,70,75,0.51,AR,1683237853
35,hermanus,-34.4187,19.2345,12.11,74,25,2.56,ZA,1683237853
36,mejit,10.2753,170.8646,27.24,77,97,7.1,MH,1683237853
37,tezu,27.9167,96.1667,19.88,90,100,0.81,IN,1683237853
38,surgeres,46.1,-0.75,14.96,88,53,2.5,FR,1683237853
39,colonia,50.9333,6.95,18.79,52,0,3.09,DE,1683237829
40,narrabri,-30.3167,149.7833,12.04,43,14,0.75,AU,1683237854
41,malakal,9.5334,31.6605,31.24,35,85,1.73,SS,1683237854
42,holualoa,19.6228,-155.9522,26.91,69,40,4.63,US,1683237854
43,dunedin,-45.8742,170.5036,12.11,97,87,0.89,NZ,1683237673
44,bilibino,68.0546,166.4372,-8.55,88,100,1.55,RU,1683237854
45,atafu village,-8.5421,-172.5159,29.16,73,63,7.5,TK,1683237855
46,ilulissat,69.2167,-51.1,-0.99,80,75,0.0,GL,1683237855
47,papatowai,-46.5619,169.4708,12.57,88,87,5.9,NZ,1683237855
48,mahibadhoo,3.7833,72.9667,26.54,78,100,6.73,MV,1683237855
49,la passe,45.5549,-0.8967,16.13,74,57,1.37,FR,1683237855
50,banff,51.1762,-115.5698,22.57,55,95,2.06,CA,1683237732
51,anadyr,64.75,177.4833,-7.72,78,0,1.0,RU,1683237856
52,"laikit, laikit ii (dimembe)",1.4792,124.9735,23.47,94,20,0.51,ID,1683237856
53,chonchi,-42.6128,-73.8092,12.56,99,100,0.54,CL,1683237856
54,yemva,62.59,50.8594,1.7,68,8,2.53,RU,1683237856
55,bubaque,11.2833,-15.8333,26.8,79,68,6.18,GW,1683237857
56,shimoda,34.6667,138.95,18.39,76,21,6.66,JP,1683237857
57,jamestown,42.097,-79.2353,11.4,76,100,4.12,US,1683237617
58,kone,-21.0595,164.8658,25.59,79,4,2.14,NC,1683237857
59,luderitz,-26.6481,15.1594,14.45,68,1,5.75,NA,1683237858
60,lihue,21.9789,-159.3672,28.58,73,94,7.26,US,1683237818
61,xiuyan,40.2928,123.2744,15.18,95,100,5.09,CN,1683237858
62,thompson,55.7435,-97.8558,10.09,57,75,2.57,CA,1683237858
63,ispir,40.4829,40.9956,9.43,42,31,1.01,TR,1683237859
64,khandyga,62.6667,135.6,0.55,93,100,2.59,RU,1683237859
65,port elizabeth,-33.918,25.5701,18.39,77,20,5.14,ZA,1683237564
66,hawaiian paradise park,19.5933,-154.9731,26.13,75,100,0.0,US,1683237859
67,wailua homesteads,22.0669,-159.378,28.24,73,100,8.23,US,1683237859
68,margaret river,-33.95,115.0667,11.37,83,56,5.64,AU,1683237860
69,west island,-12.1568,96.8225,26.99,89,75,9.26,CC,1683237860
70,tura,25.5198,90.2201,19.73,91,16,0.95,IN,1683237707
71,cabo san lucas,22.8909,-109.9124,29.78,53,0,5.14,MX,1683237518
72,college,64.8569,-147.8028,9.49,49,97,0.41,US,1683237785
73,iskateley,67.6803,53.1512,-1.65,93,100,10.58,RU,1683237861
74,la'ie,21.6477,-157.9253,28.98,74,49,3.13,US,1683237861
75,bredasdorp,-34.5322,20.0403,13.37,75,0,1.57,ZA,1683237861
76,iqaluit,63.7506,-68.5145,-0.15,80,20,5.66,CA,1683237861
77,blackmans bay,-43.0167,147.3167,8.07,92,100,3.31,AU,1683237862
78,brookings,44.3114,-96.7984,25.03,30,100,3.6,US,1683237658
79,udachny,66.4167,112.4,-1.97,86,86,1.35,RU,1683237702
80,tangalle,6.024,80.7911,24.09,91,100,7.8,LK,1683237862
81,codrington,-38.2667,141.9667,11.71,71,100,7.2,AU,1683237862
82,mata-utu,-13.2816,-176.1745,28.5,69,3,3.95,WF,1683237863
83,kintinku,-5.8833,35.2333,20.76,73,51,1.67,TZ,1683237863
84,port lincoln,-34.7333,135.8667,14.79,82,100,5.59,AU,1683237863
85,yuxia,34.0615,108.6291,15.34,69,67,2.32,CN,1683237863
86,kodiak,57.79,-152.4072,5.73,87,100,3.6,US,1683237864
87,dudinka,69.4058,86.1778,-13.54,90,66,2.51,RU,1683237864
88,alpine,32.835,-116.7664,16.4,60,82,4.92,US,1683237609
89,yellowknife,62.456,-114.3525,13.29,41,20,5.66,CA,1683237666
90,manokwari,-0.8667,134.0833,26.81,80,26,1.36,ID,1683237865
91,crucecita,-28.95,-58.9833,16.77,98,100,1.01,AR,1683237865
92,makokou,0.5738,12.8642,21.81,92,100,1.15,GA,1683237865
93,pingnan,23.5543,110.3976,23.48,95,8,1.61,CN,1683237865
94,porto murtinho,-21.6989,-57.8825,24.52,70,91,2.43,BR,1683237865
95,geraldton,-28.7667,114.6,19.23,39,100,3.09,AU,1683237866
96,cooper's town,26.8667,-77.5167,25.6,73,5,4.77,BS,1683237866
97,angleton,29.1694,-95.4319,28.41,84,100,4.63,US,1683237866
98,yaren,-0.5472,166.916,28.44,75,49,4.0,NR,1683237866
99,nuuk,64.1835,-51.7216,2.34,93,75,1.54,GL,1683237817
100,klyuchi,52.2667,79.1667,8.52,40,83,3.31,RU,1683237867
101,carutapera,-1.195,-46.02,25.2,91,100,2.82,BR,1683237831
102,tari,12.4086,4.4914,34.75,18,8,3.18,NG,1683237867
103,invercargill,-46.4,168.35,12.9,83,85,2.43,NZ,1683237867
104,enriquillo,17.9,-71.2333,29.82,68,71,3.97,DO,1683237868
105,walvis bay,-22.9575,14.5053,13.94,88,1,1.54,NA,1683237868
106,hithadhoo,-0.6,73.0833,26.73,83,100,10.07,MV,1683237868
107,hasaki,35.7333,140.8333,18.45,72,59,8.17,JP,1683237868
108,avarua,-21.2078,-159.775,26.03,89,75,9.26,CK,1683237868
109,mil'kovo,55.6078,37.7956,9.08,67,94,1.86,RU,1683237869
110,hobyo,5.3505,48.5268,28.0,81,7,9.31,SO,1683237869
111,saldanha,-33.0117,17.9442,13.03,82,0,5.96,ZA,1683237869
112,las trojes,14.0667,-85.9833,31.9,28,5,4.97,HN,1683237869
113,jabor,5.921,169.6434,27.11,80,100,2.88,MH,1683237869
114,island harbour,50.724,-1.2758,13.42,91,98,2.24,GB,1683237870
115,zaozersk,69.4005,32.4476,-4.67,84,100,3.31,RU,1683237870
116,milngavie,55.9407,-4.3231,8.26,77,20,8.23,GB,1683237870
117,ust-nera,64.5667,143.2,-1.02,85,100,2.86,RU,1683237870
118,nageswari,25.9688,89.693,22.83,81,12,2.59,BD,1683237870
119,tulum,20.2167,-87.4667,29.79,65,0,3.56,MX,1683237871
120,tukrah,32.5341,20.5791,16.91,86,12,5.37,LY,1683237871
121,oriximina,-1.7656,-55.8661,25.5,90,66,1.97,BR,1683237646
122,mangrol,21.1167,70.1167,26.84,75,8,3.95,IN,1683237871
123,sumbe,-11.2061,13.8437,25.47,88,2,1.74,AO,1683237871
124,qaqortoq,60.7167,-46.0333,1.9,68,16,1.39,GL,1683237872
125,viedma,-40.8135,-62.9967,15.74,51,100,2.75,AR,1683237872
126,nova xavantina,-14.6667,-52.35,23.06,65,4,1.2,BR,1683237637
127,sovetskaya gavan',48.9723,140.2878,4.57,67,53,0.47,RU,1683237872
128,quelimane,-17.8786,36.8883,22.97,78,75,0.0,MZ,1683237872
129,tsiombe,-25.3,45.4833,20.22,81,0,3.81,MG,1683237873
130,happy valley-goose bay,53.3168,-60.3315,7.17,57,20,5.14,CA,1683237873
131,maceio,-9.6658,-35.7353,25.69,88,75,2.57,BR,1683237613
132,kapa'a,22.0752,-159.319,28.99,73,75,4.02,US,1683237766
133,ad dabbah,18.05,30.95,30.05,7,91,3.99,SD,1683237873
134,apia,-13.8333,-171.7667,28.95,75,33,7.4,WS,1683237636
135,mezhdurechensk,53.6942,88.0603,0.52,88,50,1.3,RU,1683237874
136,libenge,3.65,18.6333,24.88,67,17,0.79,CD,1683237874
137,la ronge,55.1001,-105.2842,23.14,18,40,7.2,CA,1683237874
138,quesnel,52.9999,-122.5029,25.28,38,0,2.06,CA,1683237874
139,labytnangi,66.6572,66.4183,-1.52,92,87,4.51,RU,1683237874
140,okha,53.5739,142.9478,-0.64,92,100,7.24,RU,1683237875
141,starotitarovskaya,45.2136,37.1439,11.26,81,99,1.73,RU,1683237875
142,tiksi,71.6872,128.8694,-16.55,83,23,7.25,RU,1683237875
143,bartica,6.4,-58.6167,28.18,66,39,2.83,GY,1683237875
144,port alberni,49.2413,-124.8028,18.81,76,100,0.89,CA,1683237875
145,betio village,1.358,172.9211,30.02,78,38,4.18,KI,1683237876
146,punta arenas,-53.15,-70.9167,7.06,81,20,4.63,CL,1683237876
147,albany,42.6001,-73.9662,12.98,70,100,2.32,US,1683237822
148,kilindoni,-7.9139,39.6668,27.02,70,1,5.21,TZ,1683237876
149,stanley,54.868,-1.6985,7.38,89,100,4.12,GB,1683237877
150,pamandzi,-12.7967,45.2794,24.88,94,0,0.0,YT,1683237685
151,howrah,22.5892,88.3103,25.0,83,75,2.57,IN,1683237877
152,chicoana,-25.1009,-65.5331,13.03,73,100,1.34,AR,1683237877
153,north platte,41.1239,-100.7654,28.51,33,56,5.36,US,1683237878
154,khorixas,-20.3667,14.9667,21.62,34,4,1.96,NA,1683237878
155,tofol,5.3248,163.0078,28.88,79,75,1.54,FM,1683237878
156,undurkhaan,47.3194,110.6556,3.04,31,28,0.93,MN,1683237878
157,hammerfest,70.6634,23.6821,1.25,80,75,3.6,NO,1683237878
158,georgetown,5.4112,100.3354,26.97,89,20,0.0,MY,1683237624
159,haiku-pauwela,20.9219,-156.3051,28.01,45,40,9.26,US,1683237879
160,poronaysk,49.2167,143.1167,3.95,52,12,4.53,RU,1683237879
161,as sulayyil,20.4607,45.5779,29.14,16,13,4.17,SA,1683237879
162,nanma,36.1817,118.1583,14.2,95,100,2.3,CN,1683237879
163,ponta delgada,37.7333,-25.6667,17.4,100,75,7.2,PT,1683237879
164,rawson,-43.3002,-65.1023,14.39,64,100,3.17,AR,1683237593
165,tateyama,34.9833,139.8667,18.78,75,60,9.71,JP,1683237880
166,conduaga,8.862,117.4893,26.75,84,96,0.43,PH,1683237880
167,anchorage,61.2181,-149.9003,8.85,69,100,2.68,US,1683237779
168,fukuecho,32.6881,128.8419,19.54,86,99,11.92,JP,1683237880
169,zossen,52.2167,13.45,13.9,62,0,3.6,DE,1683237880
170,mount gambier,-37.8333,140.7667,10.92,86,100,3.64,AU,1683237881
171,wynne,35.2245,-90.7868,22.99,48,100,2.37,US,1683237609
172,port alfred,-33.5906,26.891,17.32,88,54,1.79,ZA,1683237881
173,safi,32.1667,-8.8333,16.74,78,47,8.69,MA,1683237881
174,arno,60.1167,18.6333,2.1,58,6,1.71,SE,1683237881
175,roma,43.2128,-75.4557,11.64,85,100,2.07,US,1683237599
176,st. john's,47.5649,-52.7093,3.42,98,100,11.32,CA,1683237712
177,guerrero negro,27.9769,-114.0611,18.8,52,0,8.5,MX,1683237882
178,daru,-9.0763,143.2092,26.52,91,100,6.97,PG,1683237882
179,nurota,40.5614,65.6886,10.64,25,45,3.64,UZ,1683237882
180,okakarara,-20.5833,17.4333,20.2,31,20,2.77,NA,1683237882
181,sos'va,59.1766,61.8558,10.25,92,84,1.63,RU,1683237883
182,tadine,-21.55,167.8833,25.96,78,2,3.23,NC,1683237883
183,kapchorwa,1.3965,34.4509,13.58,86,77,1.63,UG,1683237883
184,awjilah,29.1081,21.2869,17.29,65,0,3.46,LY,1683237883
185,pangody,65.85,74.4859,0.82,99,100,4.41,RU,1683237883
186,mahajanga,-15.7167,46.3167,26.01,89,20,1.54,MG,1683237884
187,mount pearl,47.5166,-52.7813,2.96,98,100,11.32,CA,1683237884
188,petropavlovsk-kamchatsky,53.0452,158.6483,0.33,100,100,5.0,RU,1683237785
189,ciudad lazaro cardenas,17.9583,-102.2,30.17,60,100,5.59,MX,1683237884
190,aktau,43.65,51.2,12.32,92,100,11.26,KZ,1683237884
191,serenje,-13.2325,30.2352,12.71,81,0,1.95,ZM,1683237884
192,kihancha,-1.1838,34.6262,17.89,89,100,1.76,KE,1683237679
193,barra de santo antonio,-9.4047,-35.5072,25.6,84,2,3.52,BR,1683237741
194,lima,-12.0432,-77.0282,23.28,81,75,5.66,PE,1683237561
195,afaahiti,-17.75,-149.2833,28.93,86,79,9.55,PF,1683237885
196,fale old settlement,-9.3852,-171.2468,28.87,76,13,7.84,TK,1683237885
197,mao,39.8885,4.2658,16.31,94,0,2.06,ES,1683237885
198,la rinconada,37.4873,-5.9826,24.1,54,0,2.06,ES,1683237886
199,porto novo,6.4965,2.6036,27.4,80,11,2.55,BJ,1683237886
200,kourou,5.1552,-52.6478,28.03,84,32,2.68,GF,1683237608
201,port-vila,-17.7338,168.3219,26.78,83,20,0.51,VU,1683237886
202,labrador city,52.9463,-66.9114,10.95,50,40,4.12,CA,1683237610
203,rio grande,-32.035,-52.0986,20.06,90,99,6.15,BR,1683237886
204,tuburan,6.6439,122.2736,26.05,76,100,1.88,PH,1683237887
205,tolanaro,-25.0319,46.9987,23.04,73,20,6.17,MG,1683237887
206,nandikotkur,15.8667,78.2667,26.8,72,100,3.64,IN,1683237887
207,severo-yeniseyskiy,60.3725,93.0408,2.97,90,100,6.2,RU,1683237887
208,petatlan,17.5167,-101.2667,32.55,48,100,2.88,MX,1683237887
209,sinop,41.7711,34.8709,11.76,72,78,2.82,TR,1683237888
210,sorong,-0.8833,131.25,26.54,81,97,1.58,ID,1683237888
211,saudarkrokur,65.7461,-19.6394,7.99,66,77,6.42,IS,1683237693
212,pandan,14.0453,124.1694,26.72,88,66,4.19,PH,1683237888
213,markovo,57.3206,107.0881,-1.22,90,14,1.49,RU,1683237888
214,yangjiang,21.85,111.9667,25.0,94,74,2.72,CN,1683237626
215,tazovsky,67.4667,78.7,-2.56,98,100,3.8,RU,1683237889
216,muriti,-1.9833,32.9167,22.28,72,30,1.21,TZ,1683237889
217,corinto,37.9407,22.9573,16.05,84,100,1.44,GR,1683237889
218,whitehorse,60.7161,-135.0538,8.43,28,75,1.03,CA,1683237769
219,port shepstone,-30.7414,30.455,19.67,81,50,6.13,ZA,1683237890
220,nadi,-17.8,177.4167,30.0,62,20,4.12,FJ,1683237890
221,saint-francois,46.4154,3.9054,16.69,72,75,1.03,FR,1683237890
222,kapuskasing,49.4169,-82.4331,14.0,47,75,4.12,CA,1683237890
223,remire-montjoly,4.9167,-52.2667,28.02,69,75,5.66,GF,1683237837
224,tannum sands,-23.9504,151.3693,19.3,72,0,3.6,AU,1683237891
225,conception bay south,47.4999,-52.9981,3.29,97,100,7.83,CA,1683237607
226,moberly,39.4184,-92.4382,24.99,20,0,5.66,US,1683237849
227,karbala,32.616,44.0249,22.68,23,0,4.98,IQ,1683237891
228,thongwa,16.7619,96.5278,27.09,59,2,1.33,MM,1683237891
229,port hedland,-20.3167,118.5667,23.03,46,100,3.09,AU,1683237891
230,kenora,49.8167,-94.4337,15.54,38,75,5.14,CA,1683237892
231,kiruna,67.8557,20.2251,-3.49,59,75,2.57,SE,1683237892
232,amahai,-3.3333,128.9167,28.38,86,97,1.72,ID,1683237892
233,badger,64.8,-147.5333,9.44,42,75,1.54,US,1683237892
234,san luis de la loma,17.2706,-100.8939,31.85,52,95,3.65,MX,1683237892
235,east london,-33.0153,27.9116,19.35,82,86,4.69,ZA,1683237892
236,huancavelica,-12.7667,-74.9833,7.67,65,85,2.83,PE,1683237893
237,keflavik,64.0049,-22.5624,7.95,87,100,5.66,IS,1683237893
238,taroa,8.7058,171.2275,26.52,84,100,4.27,MH,1683237893
239,perambalur,11.2333,78.8833,26.29,82,100,2.45,IN,1683237893
240,arar,30.9753,41.0381,20.01,14,0,2.57,SA,1683237858
241,vorgashor,67.5833,63.95,-0.87,94,100,8.17,RU,1683237894
242,manadhoo,5.7667,73.3833,28.26,72,100,7.12,MV,1683237894
243,mukalla,14.5425,49.1242,29.63,68,74,0.56,YE,1683237894
244,mar del plata,-38.0023,-57.5575,17.83,52,0,2.06,AR,1683237894
245,sittwe,20.15,92.9,26.68,61,23,4.13,MM,1683237894
246,suva,-18.1416,178.4415,28.71,70,75,5.14,FJ,1683237894
247,smithers,54.7804,-127.1743,21.18,30,20,1.54,CA,1683237895
248,nasrullahganj,22.6833,77.2667,27.38,50,28,1.91,IN,1683237895
249,markha,62.1053,129.7269,2.98,65,0,4.0,RU,1683237895
250,trikala,39.5553,21.7675,12.69,84,100,2.02,GR,1683237895
251,scarborough,54.2797,-0.4044,8.21,90,100,2.24,GB,1683237337
252,polyarnyy,69.1989,33.4478,-2.0,72,100,5.6,RU,1683237669
253,delmas,18.5447,-72.3028,30.4,66,40,4.12,HT,1683237896
254,auki,-8.7676,160.7034,28.81,73,12,2.32,SB,1683237896
255,illizi,26.4833,8.4667,26.89,13,87,2.27,DZ,1683237896
256,fort st. john,56.2499,-120.8529,18.94,30,75,1.54,CA,1683237622
257,aksu,41.1231,80.2644,7.63,56,100,6.64,CN,1683237896
258,nemuro,43.3236,145.575,9.76,77,100,5.68,JP,1683237897
259,chake chake,-5.2459,39.7666,24.8,85,12,4.99,TZ,1683237897
260,high river,50.5834,-113.8687,27.17,29,26,5.99,CA,1683237897
261,alcantara,-2.4089,-44.4147,29.11,90,44,3.49,BR,1683237897
262,zemio,5.0314,25.1361,22.66,66,42,1.13,CF,1683237897
263,naze,28.3667,129.4833,21.51,85,100,6.31,JP,1683237898
264,estevan,49.1334,-102.9842,23.19,23,0,4.12,CA,1683237621
265,tarakan,3.3,117.6333,25.72,94,20,1.54,ID,1683237898
266,east ballina,-28.8667,153.5833,15.44,69,27,2.78,AU,1683237898
267,flin flon,54.7682,-101.865,16.91,34,40,4.12,CA,1683237898
268,gongzhuling,43.5008,124.8198,12.69,31,100,7.58,CN,1683237899
269,mozarlandia,-14.7447,-50.5706,25.06,59,28,1.46,BR,1683237899
270,san antonio de pale,-1.4014,5.6325,28.25,74,72,1.89,GQ,1683237899
271,jacmel,18.2342,-72.5347,30.91,79,86,2.31,HT,1683237899
272,acapulco de juarez,16.8634,-99.8901,31.85,56,81,4.73,MX,1683237763
273,kerikeri,-35.2268,173.9474,19.39,95,100,0.89,NZ,1683237900
274,carnarvon,-24.8667,113.6333,22.01,72,26,5.61,AU,1683237900
275,vilyuchinsk,52.9306,158.4028,2.15,100,100,5.69,RU,1683237900
276,ardakan,32.31,54.0175,17.38,22,0,9.33,IR,1683237900
277,qamdo,31.1667,97.2333,0.76,58,33,2.42,CN,1683237900
278,mermoz boabab,14.7065,-17.4758,25.31,78,0,2.06,SN,1683237901
279,mogadishu,2.0371,45.3438,27.84,74,71,6.4,SO,1683237901
280,saint-denis,48.9167,2.3333,18.43,65,0,4.12,FR,1683237901
281,slave lake,55.2834,-114.769,25.58,31,75,4.19,CA,1683237901
282,freetown,8.484,-13.2299,26.84,83,40,4.12,SL,1683237614
283,lohja,60.2486,24.0653,2.32,72,78,3.19,FI,1683237902
284,bel ombre,-4.6167,55.4167,27.91,78,20,5.14,SC,1683237903
285,beyneu,45.3167,55.2,16.51,37,99,3.86,KZ,1683237903
286,papao,-17.75,-149.55,29.82,85,83,10.42,PF,1683237903
287,champoton,19.35,-90.7167,32.7,54,0,6.13,MX,1683237797
288,cockburn town,21.4612,-71.1419,27.34,79,96,5.18,TC,1683237904
289,palu,-0.8917,119.8707,24.95,93,99,1.58,ID,1683237906
290,port douglas,-16.4833,145.4667,24.6,70,70,4.7,AU,1683237906
291,lompoc,34.6391,-120.4579,17.51,68,75,5.81,US,1683237906
292,tyukalinsk,55.8732,72.1967,10.95,34,71,4.48,RU,1683237907
293,touros,-5.1989,-35.4608,25.53,88,45,3.91,BR,1683237907
294,barakani,-12.1356,44.4317,26.01,78,13,2.15,KM,1683237908
295,puerto deseado,-47.7503,-65.8938,9.63,72,0,3.57,AR,1683237908
296,new norfolk,-42.7826,147.0587,8.72,81,100,0.45,AU,1683237908
297,poxoreo,-15.8372,-54.3892,23.59,61,66,1.99,BR,1683237908
298,taitung city,22.7583,121.1444,25.49,74,48,1.33,TW,1683237908
299,yambio,4.5721,28.3955,22.15,82,82,1.11,SS,1683237909
300,acarau,-2.8856,-40.12,26.14,85,81,4.53,BR,1683237909
301,ariquemes,-9.9133,-63.0408,24.51,94,13,1.23,BR,1683237697
302,celestun,20.8667,-90.4,29.52,71,4,8.01,MX,1683237910
303,dwarka,22.2394,68.9678,26.76,79,14,4.44,IN,1683237910
304,pisco,-13.7,-76.2167,22.03,73,0,8.23,PE,1683237910
305,badr hunayn,23.7829,38.7905,27.17,49,96,0.69,SA,1683237910
306,guntakal junction,15.1667,77.3833,25.55,74,99,2.64,IN,1683237910
307,vadso,70.0744,29.7487,-1.51,80,40,5.14,NO,1683237911
308,adrar,20.5022,-10.0711,31.53,11,100,4.9,MR,1683237911
309,mhamid,29.82,-5.72,31.32,9,100,3.47,MA,1683237911
310,damghan,36.1683,54.348,10.49,54,58,3.5,IR,1683237912
311,rabo de peixe,37.8,-25.5833,16.73,100,75,7.2,PT,1683237912
312,ustyuzhna,58.8394,36.4321,1.14,75,81,3.08,RU,1683237912
313,el fasher,13.6279,25.3494,27.92,8,90,4.61,SD,1683237913
314,namibe,-15.1961,12.1522,23.72,71,4,1.23,AO,1683237913
315,opuwo,-18.0607,13.84,20.02,35,1,0.69,NA,1683237913
316,tafuna,-14.3358,-170.72,29.97,84,40,7.2,AS,1683237913
317,tosontsengel,48.7567,98.2839,-0.69,84,100,1.28,MN,1683237914
318,atar,20.5169,-13.0499,33.17,12,99,4.03,MR,1683237914
319,karratha,-20.7377,116.8463,25.47,37,100,3.41,AU,1683237914
320,alofi,-19.0595,-169.9187,25.94,89,75,4.63,NU,1683237915
321,baganga,7.5739,126.56,26.03,87,55,1.6,PH,1683237915
322,launceston,-41.45,147.1667,10.64,93,75,3.6,AU,1683237915
323,velike lasce,45.8322,14.6364,9.43,92,37,1.19,SI,1683237915
324,bay roberts,47.5999,-53.2648,3.62,97,100,6.26,CA,1683237916
325,alesund,62.4723,6.1549,7.64,63,0,2.06,NO,1683237916
326,alice springs,-23.7,133.8833,6.75,81,71,2.5,AU,1683237679
327,vila franca do campo,37.7167,-25.4333,17.23,94,99,7.23,PT,1683237916
328,dalandzadgad,43.5708,104.425,4.63,71,100,4.5,MN,1683237917
329,gevrai,19.2667,75.75,28.57,46,94,0.54,IN,1683237917
330,pathein,16.7833,94.7333,27.25,75,7,3.47,MM,1683237918
331,rio preto da eva,-2.6994,-59.6997,23.32,95,97,1.24,BR,1683237918
332,mega,4.05,38.3,14.68,88,88,2.67,ET,1683237918
333,shitanjing,39.2342,106.3439,9.48,52,100,0.52,CN,1683237918
334,westport,41.1415,-73.3579,14.07,67,75,4.12,US,1683237760
335,santana,-0.0583,-51.1817,26.1,94,75,2.57,BR,1683237919
336,frankfort,-27.2667,28.4833,14.62,67,82,2.99,ZA,1683237919
337,nyurba,63.2842,118.3319,0.86,99,100,3.46,RU,1683237919
338,palangkaraya,-2.2,113.8333,23.7,98,92,0.59,ID,1683237919
339,tshela,-4.9833,12.9333,23.22,99,100,0.53,CD,1683237920
340,nar'yan-mar,67.6713,53.087,-1.6,92,100,10.62,RU,1683237920
341,constantia,44.1833,28.65,10.39,90,40,2.49,RO,1683237920
342,gamboma,-1.8764,15.8644,23.84,87,44,1.63,CG,1683237920
343,camana,-16.6228,-72.7111,20.35,78,87,3.6,PE,1683237920
344,menaka,15.9182,2.4022,35.4,17,40,2.24,ML,1683237921
345,taoudenni,22.6783,-3.9836,35.61,6,9,4.3,ML,1683237921
346,solnechnyy,50.7214,136.6319,3.37,60,12,3.55,RU,1683237921
347,kavaratti,10.5669,72.642,28.63,70,72,3.62,IN,1683237921
348,uturoa,-16.7333,-151.4333,27.99,77,82,10.7,PF,1683237922
349,dawei,14.0833,98.2,26.08,89,38,0.89,MM,1683237922
350,kauhava,63.103,23.0713,-2.04,89,24,2.14,FI,1683237922
351,makassar,-5.14,119.4221,25.03,83,20,1.03,ID,1683237923
352,yeraliyev,43.2,51.65,12.0,89,100,9.22,KZ,1683237923
353,ancud,-41.8697,-73.8203,11.22,97,100,0.94,CL,1683237761
354,ust-tsilma,65.441,52.1498,-1.35,85,75,4.78,RU,1683237923
355,al kharijah,25.4514,30.5464,28.41,11,0,1.12,EG,1683237924
356,tazacorte,28.629,-17.9293,21.54,71,40,6.69,ES,1683237924
357,nova sintra,14.8667,-24.7167,21.59,77,78,10.2,CV,1683237924
358,divnogorsk,55.9594,92.3619,-0.7,73,82,2.42,RU,1683237924
359,sirjan,29.452,55.6814,18.39,17,0,1.38,IR,1683237924
360,sandnessjoen,66.0217,12.6316,1.06,69,20,1.03,NO,1683237925
361,nikolayevsk-on-amure,53.1406,140.73,0.05,87,100,3.38,RU,1683237925
362,minot,48.2325,-101.2963,23.12,25,0,4.63,US,1683237925
363,nyandoma,61.669,40.1991,1.08,94,94,1.01,RU,1683237925
364,sao joao da barra,-21.6403,-41.0511,25.05,84,0,4.32,BR,1683237720
365,xiva,41.3783,60.3639,13.99,14,83,3.33,UZ,1683237926
366,cole harbour,44.6724,-63.4751,8.71,87,100,8.75,CA,1683237926
367,ostersund,63.1792,14.6357,-0.75,47,11,2.57,SE,1683237649
368,mochudi,-24.4167,26.15,19.33,52,81,2.19,BW,1683237926
369,arraial do cabo,-22.9661,-42.0278,23.92,83,0,3.09,BR,1683237716
370,crane,31.3974,-102.3501,29.67,21,73,11.05,US,1683237927
371,shenjiamen,29.9576,122.298,19.72,98,100,11.75,CN,1683237927
372,binzhou,37.3667,118.0167,12.92,92,100,3.36,CN,1683237927
373,dauphin,51.1494,-100.0502,17.08,39,0,5.66,CA,1683237927
374,ulladulla,-35.35,150.4667,11.96,70,0,2.34,AU,1683237914
375,nogliki,51.8333,143.1667,-0.05,93,100,9.25,RU,1683237928
376,kem',64.9555,34.5793,-3.3,95,82,2.94,RU,1683237928
377,motygino,58.1831,94.7592,1.14,86,100,2.37,RU,1683237928
378,onega,63.9061,38.1404,-3.16,87,72,1.74,RU,1683237929
379,nguigmi,14.2495,13.1092,31.7,19,37,3.05,NE,1683237929
380,gidole,5.65,37.3667,13.17,91,96,1.27,ET,1683237929
381,gulf shores,30.246,-87.7008,28.1,69,0,3.58,US,1683237930
382,xilin hot,43.9667,116.0333,4.3,86,100,7.35,CN,1683237930
383,charters towers,-20.1,146.2667,19.14,71,3,3.94,AU,1683237712
384,osthofen,49.7078,8.3289,16.45,75,93,1.04,DE,1683237930
385,nha trang,12.25,109.1833,26.0,86,70,1.02,VN,1683237632
386,vrangel',42.7297,133.0839,9.9,79,100,0.69,RU,1683237931
387,barra do bugres,-15.0725,-57.1811,26.38,76,88,1.51,BR,1683237742
388,russkaya polyana,49.417,31.9201,13.08,67,100,1.99,UA,1683237931
389,constitucion,-35.3333,-72.4167,12.81,79,49,9.47,CL,1683237638
390,schuyler,42.4167,-76.883,12.98,81,100,4.02,US,1683237931
391,sumbawa besar,-8.5,117.4333,23.16,94,96,2.0,ID,1683237932
392,antsiranana,-12.2787,49.2917,24.35,78,0,5.8,MG,1683237932
393,san felipe,10.3399,-68.7425,28.48,59,48,2.74,VE,1683237932
394,puerto ayacucho,5.6639,-67.6236,31.91,58,98,1.25,VE,1683237932
395,pimentel,-6.8367,-79.9342,27.16,65,40,8.75,PE,1683237933
396,praia da vitoria,38.7333,-27.0667,20.14,77,40,5.49,PT,1683237933
397,toliara,-23.35,43.6667,21.37,74,3,1.71,MG,1683237933
398,centerville,39.6284,-84.1594,19.18,41,0,1.54,US,1683237895
399,al jawf,29.5,38.75,23.48,17,0,9.0,SA,1683237933
400,le vauclin,14.5452,-60.8388,28.03,74,75,4.63,MQ,1683237933
401,las khorey,11.1595,48.1967,30.2,72,27,2.27,SO,1683237934
402,bandundu,-3.3167,17.3667,23.11,91,91,1.34,CD,1683237934
403,trincomalee,8.5711,81.2335,25.0,90,100,5.4,LK,1683237934
404,tamanrasset,22.785,5.5228,25.95,9,0,2.06,DZ,1683237934
405,salekhard,66.53,66.6019,-0.64,86,88,5.76,RU,1683237935
406,labuan,5.2767,115.2417,25.2,94,20,0.0,MY,1683237935
407,novoorsk,51.381,58.9813,4.36,38,100,2.85,RU,1683237935
408,port blair,11.6667,92.75,28.36,72,53,0.71,IN,1683237935
409,pundong,-7.9522,110.3486,24.69,93,100,1.71,ID,1683237936
410,sarkikaraagac,38.0794,31.3664,11.71,72,99,0.97,TR,1683237936
411,save,8.0425,2.486,26.73,76,94,3.66,BJ,1683237936
412,urengoy,65.9667,78.3667,-0.05,99,100,3.41,RU,1683237936
413,sennoy,52.1509,46.9631,13.82,82,92,0.96,RU,1683237936
414,ed damer,17.5928,33.9592,30.86,8,72,4.7,SD,1683237936
415,visakhapatnam,17.69,83.2093,25.94,89,40,1.03,IN,1683237937
416,baardheere,2.3446,42.2764,25.6,79,46,4.52,SO,1683237937
417,sinabang,2.4803,96.3801,26.96,81,99,2.13,ID,1683237937
418,villiers,-27.0303,28.6006,14.9,64,97,2.98,ZA,1683237937
419,sao felix do xingu,-6.6447,-51.995,23.52,97,79,0.59,BR,1683237938
420,viqueque,-8.8673,126.3658,24.18,84,99,0.94,TL,1683237938
421,lorengau,-2.0226,147.2712,28.32,76,43,0.15,PG,1683237938
422,fort bragg,35.139,-79.006,22.17,33,75,3.09,US,1683237938
423,sidi khaled,34.387,4.9879,26.31,17,100,2.91,DZ,1683237938
424,bengkulu,-3.8004,102.2655,25.78,87,99,1.08,ID,1683237939
425,san jose de feliciano,-30.3845,-58.7517,17.81,90,100,3.14,AR,1683237939
426,kristiansund,63.1115,7.732,4.36,65,1,5.14,NO,1683237939
427,north bend,43.4065,-124.2243,14.02,81,100,4.63,US,1683237939
428,praia,14.9215,-23.5087,25.3,65,0,10.29,CV,1683237939
429,salmon arm,50.6998,-119.3024,30.17,40,47,1.03,CA,1683237939
430,magong,23.5654,119.5863,26.23,83,84,9.68,TW,1683237940
431,hotan,37.0997,79.9269,12.74,17,32,3.29,CN,1683237940
432,pacific grove,36.6177,-121.9166,16.05,76,75,3.6,US,1683237940
433,upper grand lagoon,30.1633,-85.7408,26.08,61,0,5.66,US,1683237940
434,nuku'alofa,-21.1333,-175.2,27.19,78,75,7.2,TO,1683237940
435,straja,47.9167,25.55,11.21,95,100,1.36,RO,1683237941
436,nephi,39.7102,-111.8363,16.52,26,98,6.64,US,1683237941
437,garbahaarrey,3.3289,42.2209,25.63,78,47,5.6,SO,1683237941
438,mena,51.5217,32.2157,6.77,84,100,2.22,UA,1683237941
439,belyy yar,53.6039,91.3903,-1.06,69,0,1.0,RU,1683237941
440,augusta,48.3667,10.8833,12.82,66,100,2.06,DE,1683237603
441,spirovo,57.419,34.9766,1.21,83,72,2.95,RU,1683237942
442,masterton,-40.9597,175.6575,17.16,95,100,1.43,NZ,1683237919
443,souillac,-20.5167,57.5167,24.21,88,75,2.57,MU,1683237666
444,okhotsk,59.3833,143.3,1.16,75,13,0.63,RU,1683237942
445,retreat,38.8245,-85.8533,21.52,50,24,0.78,US,1683237942
446,menongue,-14.6585,17.691,16.09,50,0,1.75,AO,1683237942
447,prado,-17.3411,-39.2208,24.07,87,2,2.82,BR,1683237943
448,sosnovo-ozerskoye,52.5249,111.5418,0.92,48,99,0.51,RU,1683237943
449,hadibu,12.65,54.0333,28.45,78,86,0.55,YE,1683237943
450,mili,6.0815,171.735,26.35,88,99,6.85,MH,1683237943
451,saint-philippe,-21.3585,55.7679,23.77,84,43,4.15,RE,1683237943
452,usinsk,65.9939,57.5281,-0.81,84,82,9.28,RU,1683237944
453,port saint john's,-31.6229,29.5448,19.11,82,64,4.31,ZA,1683237944
454,ornskoldsvik,63.2909,18.7153,-2.47,86,48,2.06,SE,1683237944
455,selfoss,63.9331,-20.9971,6.69,89,100,5.28,IS,1683237944
456,tual,-5.6667,132.75,27.58,77,100,1.81,ID,1683237944
457,maragogi,-9.0122,-35.2225,25.76,83,1,3.36,BR,1683237944
458,quellon,-43.1167,-73.6167,12.14,94,100,1.54,CL,1683237945
459,hamilton,39.1834,-84.5333,20.5,35,31,1.34,US,1683237686
460,korla,41.7597,86.1469,8.78,34,100,7.94,CN,1683237945
461,port huron,42.9709,-82.4249,15.57,63,0,4.63,US,1683237866
462,yamada,39.4667,141.95,16.6,55,40,2.39,JP,1683237945
463,peskovka,59.0448,52.3606,4.7,92,100,0.85,RU,1683237946
464,arkhangel'sk,64.5401,40.5433,-2.69,89,11,1.74,RU,1683237946
465,skovorodino,53.9833,123.9167,1.49,66,6,2.02,RU,1683237946
466,villa gesell,-37.2639,-56.973,15.59,56,0,2.21,AR,1683237946
467,ojinaga,29.5667,-104.4167,31.98,30,40,8.23,MX,1683237946
468,usogorsk,63.4106,48.6872,0.98,91,62,1.58,RU,1683237947
469,zhezqazghan,47.7833,67.7667,7.57,29,0,2.79,KZ,1683237947
470,mirny,62.5353,113.9611,0.76,96,100,3.41,RU,1683237947
471,garden city,42.3256,-83.331,17.81,45,75,4.63,US,1683237947
472,san pedro abajo,19.4794,-99.5806,23.55,45,100,1.85,MX,1683237947
473,gotse delchev,41.5667,23.7333,11.44,90,100,1.88,BG,1683237948
474,hami,42.8,93.45,9.44,23,100,6.2,CN,1683237948
475,longview,32.5007,-94.7405,27.21,45,100,3.6,US,1683237948
476,sur,22.5667,59.5289,27.29,62,5,3.81,OM,1683237948
477,upington,-28.4478,21.2561,17.21,17,66,1.54,ZA,1683237948
478,kalaleh,37.3807,55.4916,11.78,100,100,0.0,IR,1683237949
479,kangaba,11.9333,-8.4167,29.6,46,56,3.69,ML,1683237949
480,masvingo,-20.0637,30.8277,13.32,73,0,1.85,ZW,1683237949
481,wete,-5.0559,39.7294,24.94,83,14,4.83,TZ,1683237949
482,san patricio,28.017,-97.5169,29.05,74,100,4.99,US,1683237949
483,mohr,54.3528,9.7167,9.97,67,100,6.17,DE,1683237950
484,bayramaly,37.6185,62.1671,15.86,69,59,8.12,TM,1683237950
485,oranjemund,-28.55,16.4333,12.12,94,8,3.06,NA,1683237950
486,loukhi,66.0764,33.0381,-6.22,92,91,2.29,RU,1683237950
487,kidatu,-7.6992,36.9572,20.64,82,4,1.14,TZ,1683237950
488,yulinshi,38.2906,109.7494,13.7,68,100,6.96,CN,1683237951
489,noumea,-22.2763,166.4572,25.56,99,0,0.41,NC,1683237562
490,paphos,34.7667,32.4167,20.88,32,0,4.12,CY,1683237951
491,santyoku,37.4406,129.1708,17.57,91,100,6.84,KR,1683237951
492,bridgewater,44.3835,-64.5155,8.95,84,100,3.09,CA,1683237951
493,malvan,16.0667,73.4667,26.6,77,79,3.06,IN,1683237951
494,zhalantun,48.0,122.7167,8.01,35,100,2.34,CN,1683237952
495,bhanjanagar,19.9333,84.5833,27.4,73,100,0.77,IN,1683237952
496,trinidad,-14.8333,-64.9,21.99,88,75,1.54,BO,1683237952
497,saint-pierre,-21.3393,55.4781,23.82,78,100,4.63,RE,1683237952
498,anka,12.1138,5.9243,33.78,15,49,2.81,NG,1683237952
499,weno,7.4515,151.8468,27.97,83,100,5.14,FM,1683237952
500,pudozh,61.8099,36.5345,-0.64,96,87,1.03,RU,1683237953
501,el calafate,-50.3408,-72.2768,6.88,84,7,1.23,AR,1683237864
502,zanjan,36.6736,48.4787,6.66,67,0,0.7,IR,1683237953
503,bam,29.106,58.357,25.68,22,30,4.34,IR,1683237953
504,sen monorom,12.45,107.2,21.24,85,35,1.43,KH,1683237953
505,ungaran,-7.1397,110.405,23.81,94,20,1.54,ID,1683237954
506,zag,46.9441,99.165,1.85,54,100,1.67,MN,1683237954
507,kudahuvadhoo,2.6708,72.8944,27.07,75,100,7.13,MV,1683237954
508,san sebastian de la gomera,28.0916,-17.1133,22.2,56,0,3.6,ES,1683237954
509,zavodskoy,43.4597,132.2922,13.77,50,100,4.0,RU,1683237954
510,kokshetau,53.2775,69.3883,10.29,33,5,3.52,KZ,1683237955
511,hozat,39.1083,39.2213,9.91,55,100,1.08,TR,1683237955
512,nantucket,41.2835,-70.0995,9.08,77,100,7.2,US,1683237955
513,coquimbo,-29.9533,-71.3436,13.85,76,20,4.63,CL,1683237796
514,rio formoso,-8.6636,-35.1586,25.23,86,3,2.38,BR,1683237955
515,balikpapan,-1.2675,116.8289,26.55,94,40,2.57,ID,1683237955
516,bulolo,-7.2,146.65,22.08,98,100,0.54,PG,1683237956
517,santo antonio,-6.3106,-35.4789,23.51,93,25,2.53,BR,1683237956
518,vilhena,-12.7406,-60.1458,24.12,94,40,3.09,BR,1683237718
519,bikenibeu village,1.3673,173.1241,29.98,79,20,3.09,KI,1683237956
520,cartagena,10.3997,-75.5144,31.79,66,75,6.69,CO,1683237870
521,nouadhibou,20.931,-17.0347,21.99,73,100,9.26,MR,1683237956
522,nizhnevartovsk,60.9344,76.5531,6.01,100,100,0.89,RU,1683237957
523,margate,51.3813,1.3862,13.72,80,20,0.89,GB,1683237957
524,turpan,42.9333,89.1667,12.44,16,81,2.5,CN,1683237957
525,trimbach,47.3656,7.8868,14.8,100,89,1.39,CH,1683237957
526,skidel',53.5904,24.2478,4.76,88,78,2.84,BY,1683237957
527,nova olimpia,-14.7972,-57.2881,25.48,80,69,1.15,BR,1683237958
528,boyolangu,-8.1181,111.8935,24.61,93,100,0.94,ID,1683237958
529,bir el hafey,34.9321,9.1932,17.45,52,20,2.3,TN,1683237958
530,jerantut,3.936,102.3626,23.46,99,95,0.72,MY,1683237958
531,alo,7.4178,6.7371,25.9,84,100,1.95,NG,1683237958
532,rabaul,-4.1967,152.1721,26.47,81,100,0.72,PG,1683237958
533,capao da canoa,-29.7456,-50.0097,20.79,93,83,1.2,BR,1683237959
534,lillehammer,61.1146,10.4674,-5.71,93,15,1.26,NO,1683237959
535,jalalabad,34.4265,70.4515,21.88,65,86,1.1,AF,1683237959
536,paso de los libres,-29.7131,-57.0899,19.02,100,100,3.6,AR,1683237959
537,lhasa,29.65,91.1,6.58,64,80,1.84,CN,1683237960
538,pangkalanbuun,-2.6833,111.6167,23.85,99,87,0.3,ID,1683237960
539,yonan-up,37.9089,126.1611,16.09,95,100,7.51,KP,1683237960
540,albufeira,37.0882,-8.2503,19.91,74,3,5.5,PT,1683237960
541,san bernardo del viento,9.3533,-75.9524,28.82,81,100,5.13,CO,1683237960
542,maumere,-8.6199,122.2111,26.68,81,97,3.17,ID,1683237961
543,ekenas,59.9736,23.4339,2.16,80,45,4.43,FI,1683237961
544,porirua,-41.1333,174.85,17.97,75,100,4.59,NZ,1683237961
545,concepcion,-36.827,-73.0498,14.89,67,0,2.57,CL,1683237681
546,popondetta,-8.7537,148.2534,23.84,99,100,0.46,PG,1683237961
547,guiren,33.6697,118.1889,17.95,95,100,3.1,CN,1683237962
548,laguna,38.421,-121.4238,16.83,65,100,2.57,US,1683237962
549,bathsheba,13.2167,-59.5167,28.34,74,75,5.14,BB,1683237962
550,talakan,50.3167,130.3667,6.65,61,38,3.71,RU,1683237962
551,tutong,4.8,114.65,26.05,92,85,2.07,BN,1683237962
552,wabag,-5.4781,143.7021,15.63,94,48,0.14,PG,1683237963
553,aral,40.5156,81.2636,10.37,23,100,7.21,CN,1683237964
554,bandipura,34.4167,74.65,10.67,88,95,2.2,IN,1683237964
555,i-n-salah,27.1935,2.4607,31.43,11,8,4.02,DZ,1683237964
556,havana,23.133,-82.383,29.24,65,20,5.66,CU,1683237841
557,timimoun,29.2639,0.231,33.21,11,0,2.57,DZ,1683237965
558,bhisho,-32.8472,27.4422,15.36,87,92,1.92,ZA,1683237965
559,huarmey,-10.0681,-78.1522,24.37,77,28,4.31,PE,1683237965
560,dangriga,16.9692,-88.2321,28.22,77,3,5.39,BZ,1683237966
561,vila do maio,15.1333,-23.2167,25.44,84,25,7.36,CV,1683237966
562,uruacu,-14.5247,-49.1408,23.89,61,16,0.96,BR,1683237819
563,ceeldheer,3.8488,47.1806,27.3,82,12,6.99,SO,1683237966
564,ibiza,38.9088,1.433,18.85,87,20,1.79,ES,1683237942
565,point pedro,9.8167,80.2333,26.99,82,100,5.1,LK,1683237966
566,neiafu,-18.65,-173.9833,22.38,94,100,3.6,TO,1683237967
567,kruisfontein,-34.0033,24.7314,17.16,67,65,4.38,ZA,1683237967
568,bom jardim,-7.7958,-35.5872,22.48,92,23,2.62,BR,1683237967
569,tubmanburg,6.8708,-10.8172,25.03,93,28,0.83,LR,1683237967
570,berezovyy,51.6667,135.7,4.07,68,72,0.52,RU,1683237968
571,choibalsan,48.0667,114.5,4.09,23,9,1.59,MN,1683237968
572,idri,27.5,13.2667,23.31,20,0,4.87,LY,1683237968
573,pacocha,-17.5833,-71.3333,21.08,83,100,4.12,PE,1683237968
574,boguchany,58.3814,97.4531,2.09,79,97,2.49,RU,1683237969
575,vila velha,-20.3297,-40.2925,25.53,87,75,2.06,BR,1683237822
576,kantunilkin,21.0917,-87.45,34.7,36,2,4.4,MX,1683237969
577,voss,60.623,6.4229,6.41,72,46,2.12,NO,1683237970
578,mgandu,-5.95,34.1333,18.48,77,93,3.17,TZ,1683237970
